<?xml version="1.0" encoding="UTF-8"?>
<kml xmlns="http://www.opengis.net/kml/2.2">
  <Document>
    <name>Little Libraries of Camberville</name>
    <description>That I have scanned into Libib :)</description>
    <Style id="icon-1899-0288D1-nodesc-normal">
      <IconStyle>
        <color>ffd18802</color>
        <scale>1</scale>
        <Icon>
          <href>https://www.gstatic.com/mapspro/images/stock/503-wht-blank_maps.png</href>
        </Icon>
        <hotSpot x="32" xunits="pixels" y="64" yunits="insetPixels"/>
      </IconStyle>
      <LabelStyle>
        <scale>0</scale>
      </LabelStyle>
      <BalloonStyle>
        <text><![CDATA[<h3>$[name]</h3>]]></text>
      </BalloonStyle>
    </Style>
    <Style id="icon-1899-0288D1-nodesc-highlight">
      <IconStyle>
        <color>ffd18802</color>
        <scale>1</scale>
        <Icon>
          <href>https://www.gstatic.com/mapspro/images/stock/503-wht-blank_maps.png</href>
        </Icon>
        <hotSpot x="32" xunits="pixels" y="64" yunits="insetPixels"/>
      </IconStyle>
      <LabelStyle>
        <scale>1</scale>
      </LabelStyle>
      <BalloonStyle>
        <text><![CDATA[<h3>$[name]</h3>]]></text>
      </BalloonStyle>
    </Style>
    <StyleMap id="icon-1899-0288D1-nodesc">
      <Pair>
        <key>normal</key>
        <styleUrl>#icon-1899-0288D1-nodesc-normal</styleUrl>
      </Pair>
      <Pair>
        <key>highlight</key>
        <styleUrl>#icon-1899-0288D1-nodesc-highlight</styleUrl>
      </Pair>
    </StyleMap>
    <Folder>
      <name><![CDATA[Libraries I've visited]]></name>
      <Placemark>
        <name>Houghton</name>
        <styleUrl>#icon-1899-0288D1-nodesc</styleUrl>
        <Point>
          <coordinates>
            -71.0989735,42.3748821,0
          </coordinates>
        </Point>
      </Placemark>
      <Placemark>
        <name>Norfolk</name>
        <styleUrl>#icon-1899-0288D1-nodesc</styleUrl>
        <Point>
          <coordinates>
            -71.0954013,42.3744252,0
          </coordinates>
        </Point>
      </Placemark>
      <Placemark>
        <name>Adrian</name>
        <styleUrl>#icon-1899-0288D1-nodesc</styleUrl>
        <Point>
          <coordinates>
            -71.0989496,42.3772709,0
          </coordinates>
        </Point>
      </Placemark>
      <Placemark>
        <name>Tremont</name>
        <styleUrl>#icon-1899-0288D1-nodesc</styleUrl>
        <Point>
          <coordinates>
            -71.0990935,42.3700246,0
          </coordinates>
        </Point>
      </Placemark>
      <Placemark>
        <name>Inman</name>
        <styleUrl>#icon-1899-0288D1-nodesc</styleUrl>
        <Point>
          <coordinates>
            -71.102244,42.3711782,0
          </coordinates>
        </Point>
      </Placemark>
      <Placemark>
        <name>Antrim</name>
        <styleUrl>#icon-1899-0288D1-nodesc</styleUrl>
        <Point>
          <coordinates>
            -71.1031154,42.3713681,0
          </coordinates>
        </Point>
      </Placemark>
      <Placemark>
        <name>Maple</name>
        <styleUrl>#icon-1899-0288D1-nodesc</styleUrl>
        <Point>
          <coordinates>
            -71.1045209,42.3725843,0
          </coordinates>
        </Point>
      </Placemark>
      <Placemark>
        <name>Ellery</name>
        <styleUrl>#icon-1899-0288D1-nodesc</styleUrl>
        <Point>
          <coordinates>
            -71.1092675,42.3732832,0
          </coordinates>
        </Point>
      </Placemark>
      <Placemark>
        <name>Trowbridge</name>
        <styleUrl>#icon-1899-0288D1-nodesc</styleUrl>
        <Point>
          <coordinates>
            -71.1100951,42.3750402,0
          </coordinates>
        </Point>
      </Placemark>
      <Placemark>
        <name>Cambridge</name>
        <styleUrl>#icon-1899-0288D1-nodesc</styleUrl>
        <Point>
          <coordinates>
            -71.1087845,42.3746868,0
          </coordinates>
        </Point>
      </Placemark>
      <Placemark>
        <name>Summer</name>
        <styleUrl>#icon-1899-0288D1-nodesc</styleUrl>
        <Point>
          <coordinates>
            -71.1044921,42.3859144,0
          </coordinates>
        </Point>
      </Placemark>
      <Placemark>
        <name>Spring Hill Terrace</name>
        <styleUrl>#icon-1899-0288D1-nodesc</styleUrl>
        <Point>
          <coordinates>
            -71.1070864,42.3891906,0
          </coordinates>
        </Point>
      </Placemark>
      <Placemark>
        <name>Hudson</name>
        <styleUrl>#icon-1899-0288D1-nodesc</styleUrl>
        <Point>
          <coordinates>
            -71.1030383,42.3893905,0
          </coordinates>
        </Point>
      </Placemark>
      <Placemark>
        <name>Willoughby</name>
        <styleUrl>#icon-1899-0288D1-nodesc</styleUrl>
        <Point>
          <coordinates>
            -71.1013525,42.3895228,0
          </coordinates>
        </Point>
      </Placemark>
      <Placemark>
        <name>Woodbine</name>
        <styleUrl>#icon-1899-0288D1-nodesc</styleUrl>
        <Point>
          <coordinates>
            -71.1046104,42.3911899,0
          </coordinates>
        </Point>
      </Placemark>
      <Placemark>
        <name>Ellsworth</name>
        <styleUrl>#icon-1899-0288D1-nodesc</styleUrl>
        <Point>
          <coordinates>
            -71.1063975,42.3741219,0
          </coordinates>
        </Point>
      </Placemark>
    </Folder>
  </Document>
</kml>
